$GNGGA,063325.00,3110.89235157,N,12124.26065572,E,4,27,0.6,2.5684,M,11.4439,M,01,0*45
$GNRMC,063325.00,A,3110.89235157,N,12124.26065572,E,0.007,117.7,190523,6.3,W,R,V*59
$GPGSV,3,1,10,03,10,040,33,04,22,073,40,12,18,313,31,06,57,342,47,1*6E
$GPGSV,3,2,10,09,32,108,35,17,60,102,48,19,74,039,49,20,25,228,34,1*6A
$GPGSV,3,3,10,11,32,284,40,14,15,175,17,1*6A
$GPGSV,2,1,07,03,10,040,30,04,22,073,39,06,57,342,47,09,32,108,34,4*6E
$GPGSV,2,2,07,17,60,102,45,19,74,039,45,11,32,284,39,4*51
$GPGSV,2,1,06,03,10,040,35,04,22,073,44,06,57,342,50,09,32,108,37,8*69
$GPGSV,2,2,06,11,32,284,42,14,15,175,30,8*63
$GBGSV,5,1,19,01,47,139,43,07,72,203,47,08,59,267,43,10,71,261,46,1*74
$GBGSV,5,2,19,13,48,255,44,19,59,082,51,20,18,041,37,22,43,179,47,1*7E
$GBGSV,5,3,19,24,11,286,27,29,31,094,39,35,65,014,50,38,70,291,49,1*77
$GBGSV,5,4,19,40,71,160,50,44,29,310,43,26,14,240,19,59,48,147,46,1*7E
$GBGSV,5,5,19,04,35,121,39,12,09,301,28,60,33,241,34,1*40
$GBGSV,3,1,09,19,59,082,49,20,18,041,38,22,43,179,44,24,11,286,31,3*79
$GBGSV,3,2,09,29,31,094,32,35,65,014,49,38,70,291,47,40,71,160,48,3*78
$GBGSV,3,3,09,44,29,310,43,3*43
$GBGSV,3,1,09,19,59,082,48,20,18,041,41,22,43,179,43,24,11,286,38,5*7E
$GBGSV,3,2,09,29,31,094,33,35,65,014,47,38,70,291,48,40,71,160,48,5*7E
$GBGSV,3,3,09,44,29,310,41,5*47
$GBGSV,5,1,20,01,47,139,42,07,72,203,47,08,59,267,45,10,71,261,47,8*71
$GBGSV,5,2,20,13,48,255,43,19,59,082,50,20,18,041,39,22,43,179,45,8*77
$GBGSV,5,3,20,24,11,286,34,29,31,094,36,35,65,014,50,38,70,291,50,8*71
$GBGSV,5,4,20,40,71,160,48,44,29,310,44,26,14,240,20,59,48,147,46,8*79
$GBGSV,5,5,20,04,35,121,43,12,09,301,30,05,14,254,31,60,33,241,31,8*73
$GBGSV,2,1,07,01,47,139,42,07,72,203,46,08,59,267,42,10,71,261,47,B*0F
$GBGSV,2,2,07,13,48,255,41,04,35,121,41,12,09,301,33,B*36
$GNGGA,063326.00,3110.89235250,N,12124.26065616,E,4,27,0.6,2.5720,M,11.4439,M,01,0*4C
$GNRMC,063326.00,A,3110.89235250,N,12124.26065616,E,0.004,122.2,190523,6.3,W,R,V*5F
$GPGSV,3,1,10,03,10,040,34,04,22,073,40,12,18,313,32,06,57,342,48,1*65
$GPGSV,3,2,10,09,32,108,35,17,60,102,48,19,74,039,49,20,25,228,34,1*6A
$GPGSV,3,3,10,11,32,284,40,14,15,175,17,1*6A
$GPGSV,2,1,06,04,22,073,39,06,57,342,47,09,32,108,34,17,60,102,45,4*68
$GPGSV,2,2,06,19,74,039,45,11,32,284,38,4*63
$GPGSV,2,1,06,03,10,040,36,04,22,073,43,06,57,342,50,09,32,108,37,8*6D
$GPGSV,2,2,06,11,32,284,42,14,15,175,31,8*62
$GBGSV,5,1,19,01,47,139,43,07,72,203,46,08,59,267,43,10,71,261,46,1*75
$GBGSV,5,2,19,13,48,255,44,19,59,082,51,20,18,041,38,22,43,179,47,1*71
$GBGSV,5,3,19,24,11,286,28,29,31,094,39,35,65,014,51,38,70,291,49,1*79
$GBGSV,5,4,19,40,71,160,50,44,29,310,43,26,14,240,18,59,48,147,46,1*7F
$GBGSV,5,5,19,04,35,121,39,12,09,301,28,60,33,241,34,1*40
$GBGSV,3,1,09,19,59,082,49,20,18,041,38,22,43,179,44,24,11,286,31,3*79
$GBGSV,3,2,09,29,31,094,32,35,65,014,49,38,70,291,48,40,71,160,48,3*77
$GBGSV,3,3,09,44,29,310,43,3*43
$GBGSV,3,1,09,19,59,082,48,20,18,041,42,22,43,179,43,24,11,286,38,5*7D
$GBGSV,3,2,09,29,31,094,33,35,65,014,48,38,70,291,49,40,71,160,48,5*70
$GBGSV,3,3,09,44,29,310,41,5*47
$GBGSV,5,1,20,01,47,139,42,07,72,203,46,08,59,267,45,10,71,261,46,8*71
$GBGSV,5,2,20,13,48,255,42,19,59,082,50,20,18,041,40,22,43,179,45,8*78
$GBGSV,5,3,20,24,11,286,34,29,31,094,35,35,65,014,50,38,70,291,50,8*72
$GBGSV,5,4,20,40,71,160,48,44,29,310,44,26,14,240,20,59,48,147,46,8*79
$GBGSV,5,5,20,04,35,121,43,12,09,301,30,05,14,254,31,60,33,241,27,8*74
$GBGSV,2,1,07,01,47,139,42,07,72,203,47,08,59,267,42,10,71,261,47,B*0E
$GBGSV,2,2,07,13,48,255,42,04,35,121,42,12,09,301,33,B*36
$GNGGA,063327.00,3110.89235122,N,12124.26065593,E,4,27,0.6,2.5695,M,11.4439,M,01,0*4A
$GNRMC,063327.00,A,3110.89235122,N,12124.26065593,E,0.005,110.9,190523,6.3,W,R,V*5D
$GPGSV,3,1,10,03,10,040,33,04,22,073,39,12,18,313,31,06,57,342,47,1*60
$GPGSV,3,2,10,09,32,108,35,17,60,102,48,19,74,039,48,20,25,228,33,1*6C
$GPGSV,3,3,10,11,32,284,39,14,15,175,19,1*6A
$GPGSV,2,1,07,04,22,073,39,12,18,313,21,06,57,342,46,09,32,108,33,4*65
$GPGSV,2,2,07,17,60,102,45,19,74,039,45,11,32,284,37,4*5F
$GPGSV,2,1,06,03,10,040,35,04,22,073,42,06,57,342,49,09,32,108,37,8*67
$GPGSV,2,2,06,11,32,284,42,14,15,175,31,8*62
$GBGSV,5,1,19,01,47,139,42,07,72,203,46,08,59,267,42,10,71,261,45,1*76
$GBGSV,5,2,19,13,48,255,43,19,59,082,50,20,18,041,36,22,43,179,46,1*78
$GBGSV,5,3,19,24,11,286,29,29,31,094,38,35,65,014,50,38,70,291,49,1*78
$GBGSV,5,4,19,40,71,160,50,44,29,310,42,26,14,240,18,59,48,147,46,1*7E
$GBGSV,5,5,19,04,35,121,39,12,09,301,27,60,33,241,33,1*48
$GBGSV,3,1,09,19,59,082,48,20,18,041,37,22,43,179,44,24,11,286,30,3*76
$GBGSV,3,2,09,29,31,094,31,35,65,014,49,38,70,291,47,40,71,160,47,3*74
$GBGSV,3,3,09,44,29,310,42,3*42
$GBGSV,3,1,09,19,59,082,48,20,18,041,41,22,43,179,43,24,11,286,38,5*7E
$GBGSV,3,2,09,29,31,094,34,35,65,014,47,38,70,291,48,40,71,160,48,5*79
$GBGSV,3,3,09,44,29,310,41,5*47
$GBGSV,5,1,20,01,47,139,42,07,72,203,46,08,59,267,44,10,71,261,46,8*70
$GBGSV,5,2,20,13,48,255,42,19,59,082,50,20,18,041,39,22,43,179,45,8*76
$GBGSV,5,3,20,24,11,286,32,29,31,094,35,35,65,014,50,38,70,291,50,8*74
$GBGSV,5,4,20,40,71,160,48,44,29,310,44,26,14,240,20,59,48,147,45,8*7A
$GBGSV,5,5,20,04,35,121,43,12,09,301,31,05,14,254,31,60,33,241,28,8*7A
$GBGSV,2,1,07,01,47,139,41,07,72,203,46,08,59,267,42,10,71,261,47,B*0C
$GBGSV,2,2,07,13,48,255,41,04,35,121,42,12,09,301,32,B*34
$GNGGA,063328.00,3110.89235181,N,12124.26065472,E,4,27,0.6,2.5722,M,11.4439,M,01,0*4F
$GNRMC,063328.00,A,3110.89235181,N,12124.26065472,E,0.006,116.1,190523,6.3,W,R,V*58
$GPGSV,3,1,10,03,10,040,33,04,22,073,40,12,18,313,31,06,57,342,47,1*6E
$GPGSV,3,2,10,09,32,108,36,17,60,102,48,19,74,039,48,20,25,228,34,1*68
$GPGSV,3,3,10,11,32,284,39,14,15,175,21,1*61
$GPGSV,2,1,07,04,22,073,39,12,18,313,20,06,57,342,46,09,32,108,33,4*64
$GPGSV,2,2,07,17,60,102,45,19,74,039,45,11,32,284,38,4*50
$GPGSV,2,1,06,03,10,040,35,04,22,073,43,06,57,342,50,09,32,108,38,8*61
$GPGSV,2,2,06,11,32,284,42,14,15,175,31,8*62
$GBGSV,5,1,19,01,47,139,42,07,72,203,46,08,59,267,43,10,71,261,45,1*77
$GBGSV,5,2,19,13,48,255,43,19,59,082,50,20,18,041,36,22,43,179,46,1*78
$GBGSV,5,3,19,24,11,286,28,29,31,094,38,35,65,014,50,38,70,291,48,1*78
$GBGSV,5,4,19,40,71,160,49,44,29,310,42,26,14,240,18,59,48,147,46,1*76
$GBGSV,5,5,19,04,35,121,39,12,09,301,26,60,33,241,33,1*49
$GBGSV,3,1,09,19,59,082,49,20,18,041,38,22,43,179,44,24,11,286,29,3*70
$GBGSV,3,2,09,29,31,094,32,35,65,014,49,38,70,291,47,40,71,160,48,3*78
$GBGSV,3,3,09,44,29,310,42,3*42
$GBGSV,3,1,09,19,59,082,48,20,18,041,41,22,43,179,43,24,11,286,38,5*7E
$GBGSV,3,2,09,29,31,094,34,35,65,014,48,38,70,291,48,40,71,160,48,5*76
$GBGSV,3,3,09,44,29,310,41,5*47
$GBGSV,5,1,20,01,47,139,42,07,72,203,46,08,59,267,44,10,71,261,46,8*70
$GBGSV,5,2,20,13,48,255,42,19,59,082,50,20,18,041,40,22,43,179,44,8*79
$GBGSV,5,3,20,24,11,286,31,29,31,094,35,35,65,014,50,38,70,291,49,8*7F
$GBGSV,5,4,20,40,71,160,48,44,29,310,44,26,14,240,21,59,48,147,45,8*7B
$GBGSV,5,5,20,04,35,121,42,12,09,301,31,05,14,254,30,60,33,241,29,8*7B
$GBGSV,2,1,07,01,47,139,41,07,72,203,47,08,59,267,42,10,71,261,47,B*0D
$GBGSV,2,2,07,13,48,255,41,04,35,121,42,12,09,301,32,B*34
$GNGGA,063329.00,3110.89235161,N,12124.26065686,E,4,27,0.6,2.5731,M,11.4439,M,01,0*4B
$GNRMC,063329.00,A,3110.89235161,N,12124.26065686,E,0.005,139.3,190523,6.3,W,R,V*52
$GPGSV,3,1,10,03,10,040,33,04,22,073,40,12,18,313,31,06,57,342,47,1*6E
$GPGSV,3,2,10,09,32,108,36,17,60,102,48,19,74,039,49,20,25,228,34,1*69
$GPGSV,3,3,10,11,32,284,40,14,15,175,21,1*6F
$GPGSV,2,1,06,04,22,073,39,06,57,342,46,09,32,108,34,17,60,102,45,4*69
$GPGSV,2,2,06,19,74,039,44,11,32,284,38,4*62
$GPGSV,2,1,06,03,10,040,34,04,22,073,42,06,57,342,50,09,32,108,37,8*6E
$GPGSV,2,2,06,11,32,284,42,14,15,175,31,8*62
$GBGSV,5,1,19,01,47,139,43,07,72,203,46,08,59,267,43,10,71,261,46,1*75
$GBGSV,5,2,19,13,48,255,44,19,59,082,51,20,18,041,37,22,43,179,46,1*7F
$GBGSV,5,3,19,24,11,286,30,29,31,094,37,35,65,014,51,38,70,291,49,1*7E
$GBGSV,5,4,19,40,71,160,50,44,29,310,42,26,14,240,18,59,48,147,46,1*7E
$GBGSV,5,5,19,04,35,121,39,12,09,301,28,60,33,241,34,1*40
$GBGSV,3,1,09,19,59,082,49,20,18,041,38,22,43,179,44,24,11,286,30,3*78
$GBGSV,3,2,09,29,31,094,32,35,65,014,49,38,70,291,47,40,71,160,48,3*78
$GBGSV,3,3,09,44,29,310,43,3*43
$GBGSV,3,1,09,19,59,082,48,20,18,041,41,22,43,179,43,24,11,286,38,5*7E
$GBGSV,3,2,09,29,31,094,33,35,65,014,47,38,70,291,48,40,71,160,48,5*7E
$GBGSV,3,3,09,44,29,310,40,5*46
$GBGSV,5,1,20,01,47,139,41,07,72,203,46,08,59,267,45,10,71,261,46,8*72
$GBGSV,5,2,20,13,48,255,42,19,59,082,50,20,18,041,40,22,43,179,44,8*79
$GBGSV,5,3,20,24,11,286,32,29,31,094,35,35,65,014,50,38,70,291,50,8*74
$GBGSV,5,4,20,40,71,160,48,44,29,310,44,26,14,240,21,59,48,147,45,8*7B
$GBGSV,5,5,20,04,35,121,42,12,09,301,31,05,14,254,30,60,33,241,30,8*73
$GBGSV,2,1,07,01,47,139,41,07,72,203,46,08,59,267,41,10,71,261,46,B*0E
$GBGSV,2,2,07,13,48,255,41,04,35,121,41,12,09,301,32,B*37
$GNGGA,063330.00,3110.89235084,N,12124.26065728,E,4,27,0.6,2.5738,M,11.4439,M,01,0*45
$GNRMC,063330.00,A,3110.89235084,N,12124.26065728,E,0.006,140.2,190523,6.3,W,R,V*59
$GPGSV,3,1,10,03,10,040,32,04,22,073,39,12,18,313,30,06,57,342,47,1*60
$GPGSV,3,2,10,09,32,108,36,17,60,102,48,19,74,039,48,20,25,228,33,1*6F
$GPGSV,3,3,10,11,32,284,39,14,15,175,22,1*62
$GPGSV,2,1,06,04,22,073,39,06,57,342,46,09,32,108,34,17,60,102,45,4*69
$GPGSV,2,2,06,19,74,039,44,11,32,284,37,4*6D
$GPGSV,2,1,06,03,10,040,34,04,22,073,42,06,57,342,50,09,32,108,37,8*6E
$GPGSV,2,2,06,11,32,284,42,14,15,175,30,8*63
$GBGSV,5,1,19,01,47,139,42,07,72,203,46,08,59,267,42,10,71,261,45,1*76
$GBGSV,5,2,19,13,48,255,43,19,59,082,50,20,18,041,36,22,43,179,46,1*78
$GBGSV,5,3,19,24,11,286,30,29,31,094,37,35,65,014,50,38,70,291,48,1*7E
$GBGSV,5,4,19,40,71,160,50,44,29,310,42,26,14,240,18,59,48,147,45,1*7D
$GBGSV,5,5,19,04,35,121,38,12,09,301,28,60,33,241,33,1*46
$GBGSV,3,1,09,19,59,082,48,20,18,041,38,22,43,179,43,24,11,286,29,3*76
$GBGSV,3,2,09,29,31,094,30,35,65,014,48,38,70,291,46,40,71,160,47,3*75
$GBGSV,3,3,09,44,29,310,42,3*42
$GBGSV,3,1,09,19,59,082,48,20,18,041,40,22,43,179,43,24,11,286,37,5*70
$GBGSV,3,2,09,29,31,094,32,35,65,014,47,38,70,291,47,40,71,160,47,5*7F
$GBGSV,3,3,09,44,29,310,40,5*46
$GBGSV,5,1,20,01,47,139,41,07,72,203,46,08,59,267,44,10,71,261,46,8*73
$GBGSV,5,2,20,13,48,255,42,19,59,082,50,20,18,041,40,22,43,179,44,8*79
$GBGSV,5,3,20,24,11,286,31,29,31,094,35,35,65,014,50,38,70,291,49,8*7F
$GBGSV,5,4,20,40,71,160,48,44,29,310,44,26,14,240,22,59,48,147,45,8*78
$GBGSV,5,5,20,04,35,121,42,12,09,301,31,05,14,254,30,60,33,241,30,8*73
$GBGSV,2,1,07,01,47,139,41,07,72,203,46,08,59,267,41,10,71,261,46,B*0E
$GBGSV,2,2,07,13,48,255,41,04,35,121,41,12,09,301,32,B*37
$GNGGA,063331.00,3110.89235062,N,12124.26065688,E,4,26,0.6,2.5696,M,11.4439,M,01,0*43
$GNRMC,063331.00,A,3110.89235062,N,12124.26065688,E,0.005,150.0,190523,6.3,W,R,V*5B
$GPGSV,3,1,10,03,10,040,32,04,22,073,39,12,18,313,29,06,57,342,47,1*68
$GPGSV,3,2,10,09,32,108,36,17,60,102,48,19,74,039,48,20,25,228,33,1*6F
$GPGSV,3,3,10,11,32,284,40,14,15,175,23,1*6D
$GPGSV,2,1,06,04,22,073,40,06,57,342,46,09,32,108,34,17,60,102,45,4*67
$GPGSV,2,2,06,19,74,039,44,11,32,284,37,4*6D
$GPGSV,2,1,06,03,10,040,36,04,22,073,43,06,57,342,50,09,32,108,37,8*6D
$GPGSV,2,2,06,11,32,284,43,14,15,175,31,8*63
$GBGSV,5,1,19,01,47,139,42,07,72,203,46,08,59,267,42,10,71,261,45,1*76
$GBGSV,5,2,19,13,48,255,43,19,59,082,50,20,18,041,37,22,43,179,46,1*79
$GBGSV,5,3,19,24,11,286,28,29,31,094,37,35,65,014,50,38,70,291,48,1*77
$GBGSV,5,4,19,40,71,160,49,44,29,310,41,26,14,240,17,59,48,147,46,1*7A
$GBGSV,5,5,19,04,35,121,38,12,09,301,28,60,33,241,34,1*41
$GBGSV,3,1,09,19,59,082,48,20,18,041,37,22,43,179,43,24,11,286,29,3*79
$GBGSV,3,2,09,29,31,094,30,35,65,014,49,38,70,291,46,40,71,160,47,3*74
$GBGSV,3,3,09,44,29,310,42,3*42
$GBGSV,3,1,09,19,59,082,48,20,18,041,40,22,43,179,43,24,11,286,38,5*7F
$GBGSV,3,2,09,29,31,094,33,35,65,014,47,38,70,291,47,40,71,160,47,5*7E
$GBGSV,3,3,09,44,29,310,40,5*46
$GBGSV,5,1,20,01,47,139,41,07,72,203,46,08,59,267,45,10,71,261,46,8*72
$GBGSV,5,2,20,13,48,255,42,19,59,082,50,20,18,041,40,22,43,179,44,8*79
$GBGSV,5,3,20,24,11,286,30,29,31,094,35,35,65,014,50,38,70,291,49,8*7E
$GBGSV,5,4,20,40,71,160,48,44,29,310,44,26,14,240,22,59,48,147,45,8*78
$GBGSV,5,5,20,04,35,121,43,12,09,301,31,05,14,254,30,60,33,241,31,8*73
$GBGSV,2,1,07,01,47,139,41,07,72,203,46,08,59,267,41,10,71,261,46,B*0E
$GBGSV,2,2,07,13,48,255,41,04,35,121,41,12,09,301,32,B*37
$GNGGA,063332.00,3110.89235081,N,12124.26065759,E,4,26,0.6,2.5759,M,11.4439,M,01,0*42
$GNRMC,063332.00,A,3110.89235081,N,12124.26065759,E,0.006,136.8,190523,6.3,W,R,V*53
$GPGSV,3,1,10,03,10,040,33,04,22,073,40,12,18,313,29,06,57,342,47,1*67
$GPGSV,3,2,10,09,32,108,37,17,60,102,48,19,74,039,49,20,25,228,34,1*68
$GPGSV,3,3,10,11,32,284,41,14,15,175,26,1*69
$GPGSV,2,1,06,04,22,073,40,06,57,342,47,09,32,108,35,17,60,102,45,4*67
$GPGSV,2,2,06,19,74,039,45,11,32,284,36,4*6D
$GPGSV,2,1,06,03,10,040,35,04,22,073,43,06,57,342,50,09,32,108,38,8*61
$GPGSV,2,2,06,11,32,284,43,14,15,175,31,8*63
$GBGSV,5,1,19,01,47,139,42,07,72,203,46,08,59,267,43,10,71,261,45,1*77
$GBGSV,5,2,19,13,48,255,44,19,59,082,50,20,18,041,37,22,43,179,47,1*7F
$GBGSV,5,3,19,24,11,286,29,29,31,094,38,35,65,014,50,38,70,291,48,1*79
$GBGSV,5,4,19,40,71,160,50,44,29,310,42,26,14,240,16,59,48,147,46,1*70
$GBGSV,5,5,19,04,35,121,39,12,09,301,29,60,33,241,34,1*41
$GBGSV,3,1,09,19,59,082,48,20,18,041,38,22,43,179,44,24,11,286,29,3*71
$GBGSV,3,2,09,29,31,094,31,35,65,014,49,38,70,291,47,40,71,160,48,3*7B
$GBGSV,3,3,09,44,29,310,42,3*42
$GBGSV,3,1,09,19,59,082,48,20,18,041,41,22,43,179,43,24,11,286,38,5*7E
$GBGSV,3,2,09,29,31,094,34,35,65,014,47,38,70,291,48,40,71,160,48,5*79
$GBGSV,3,3,09,44,29,310,41,5*47
$GBGSV,5,1,20,01,47,139,42,07,72,203,46,08,59,267,45,10,71,261,46,8*71
$GBGSV,5,2,20,13,48,255,43,19,59,082,50,20,18,041,40,22,43,179,44,8*78
$GBGSV,5,3,20,24,11,286,31,29,31,094,35,35,65,014,50,38,70,291,49,8*7F
$GBGSV,5,4,20,40,71,160,48,44,29,310,44,26,14,240,23,59,48,147,45,8*79
$GBGSV,5,5,20,04,35,121,43,12,09,301,31,05,14,254,30,60,33,241,30,8*72
$GBGSV,2,1,07,01,47,139,42,07,72,203,47,08,59,267,42,10,71,261,47,B*0E
$GBGSV,2,2,07,13,48,255,42,04,35,121,42,12,09,301,32,B*37
$GNGGA,063333.00,3110.89235092,N,12124.26065591,E,4,26,0.6,2.5734,M,11.4439,M,01,0*4C
$GNRMC,063333.00,A,3110.89235092,N,12124.26065591,E,0.005,127.7,190523,6.3,W,R,V*5A
$GPGSV,3,1,10,03,10,040,33,04,22,073,40,12,18,313,29,06,57,342,48,1*68
$GPGSV,3,2,10,09,32,108,38,17,60,102,48,19,74,039,49,20,25,228,35,1*66
$GPGSV,3,3,10,11,32,284,41,14,15,175,26,1*69
$GPGSV,2,1,07,04,22,073,40,12,18,313,23,06,57,342,46,09,32,108,35,4*6F
$GPGSV,2,2,07,17,60,102,45,19,74,039,45,11,32,284,35,4*5D
$GPGSV,2,1,06,03,10,040,35,04,22,073,43,06,57,342,50,09,32,108,38,8*61
$GPGSV,2,2,06,11,32,284,43,14,15,175,31,8*63
$GBGSV,5,1,19,01,47,139,43,07,72,203,46,08,59,267,43,10,71,260,45,1*77
$GBGSV,5,2,19,13,48,255,44,19,59,082,50,20,18,041,37,22,43,179,47,1*7F
$GBGSV,5,3,19,24,11,286,32,29,31,094,38,35,65,014,51,38,70,291,49,1*73
$GBGSV,5,4,19,40,71,160,50,44,29,310,42,26,14,240,15,59,48,147,46,1*73
$GBGSV,5,5,19,04,35,121,39,12,09,301,28,60,33,241,34,1*40
$GBGSV,3,1,09,19,59,082,48,20,18,041,38,22,43,179,44,24,11,286,31,3*78
$GBGSV,3,2,09,29,31,094,31,35,65,014,49,38,70,291,47,40,71,160,48,3*7B
$GBGSV,3,3,09,44,29,310,43,3*43
$GBGSV,3,1,09,19,59,082,49,20,18,041,41,22,43,179,44,24,11,286,39,5*79
$GBGSV,3,2,09,29,31,094,34,35,65,014,47,38,70,291,48,40,71,160,48,5*79
$GBGSV,3,3,09,44,29,310,41,5*47
$GBGSV,5,1,20,01,47,139,42,07,72,203,47,08,59,267,45,10,71,260,46,8*71
$GBGSV,5,2,20,13,48,255,43,19,59,082,50,20,18,041,40,22,43,179,44,8*78
$GBGSV,5,3,20,24,11,286,31,29,31,094,35,35,65,014,50,38,70,291,49,8*7F
$GBGSV,5,4,20,40,71,160,48,44,29,310,44,26,14,240,23,59,48,147,45,8*79
$GBGSV,5,5,20,04,35,121,44,12,09,301,31,05,14,254,30,60,33,241,30,8*75
$GBGSV,2,1,07,01,47,139,42,07,72,203,47,08,59,267,42,10,71,260,47,B*0F
$GBGSV,2,2,07,13,48,255,42,04,35,121,42,12,09,301,32,B*37
$GNGGA,063334.00,3110.89235082,N,12124.26065727,E,4,25,0.6,2.5706,M,11.4439,M,01,0*47
$GNRMC,063334.00,A,3110.89235082,N,12124.26065727,E,0.005,128.1,190523,6.3,W,R,V*5A
$GPGSV,3,1,10,03,10,040,33,04,22,073,41,12,18,313,30,06,57,342,48,1*61
$GPGSV,3,2,10,09,32,108,38,17,60,102,48,19,74,039,49,20,25,228,35,1*66
$GPGSV,3,3,10,11,32,284,41,14,15,175,26,1*69
$GPGSV,2,1,07,04,22,073,40,12,18,313,25,06,57,342,46,09,32,108,35,4*69
$GPGSV,2,2,07,17,60,102,45,19,74,039,45,11,32,284,35,4*5D
$GPGSV,2,1,06,03,10,040,34,04,22,073,43,06,57,342,50,09,32,108,38,8*60
$GPGSV,2,2,06,11,32,284,43,14,15,175,31,8*63
$GBGSV,5,1,19,01,47,139,42,07,72,203,46,08,59,267,42,10,71,260,45,1*77
$GBGSV,5,2,19,13,48,255,44,19,59,082,50,20,18,041,37,22,43,179,46,1*7E
$GBGSV,5,3,19,24,11,286,31,29,31,094,37,35,65,014,50,38,70,291,48,1*7F
$GBGSV,5,4,19,40,71,160,50,44,29,310,42,26,14,240,14,59,48,147,46,1*72
$GBGSV,5,5,19,04,35,121,39,12,09,301,28,60,33,241,34,1*40
$GBGSV,3,1,09,19,59,082,48,20,18,041,38,22,43,179,44,24,11,286,30,3*79
$GBGSV,3,2,09,29,31,094,30,35,65,014,49,38,70,291,47,40,71,160,48,3*7A
$GBGSV,3,3,09,44,29,310,42,3*42
$GBGSV,3,1,09,19,59,082,48,20,18,041,41,22,43,179,43,24,11,286,38,5*7E
$GBGSV,3,2,09,29,31,094,34,35,65,014,47,38,70,291,47,40,71,160,48,5*76
$GBGSV,3,3,09,44,29,310,40,5*46
$GBGSV,5,1,20,01,47,139,42,07,72,203,47,08,59,267,44,10,71,260,46,8*70
$GBGSV,5,2,20,13,48,255,43,19,59,082,50,20,18,041,40,22,43,179,44,8*78
$GBGSV,5,3,20,24,11,286,30,29,31,094,35,35,65,014,50,38,70,291,49,8*7E
$GBGSV,5,4,20,40,71,160,48,44,29,310,44,26,14,240,23,59,48,147,45,8*79
$GBGSV,5,5,20,04,35,121,43,12,09,301,31,05,14,254,30,60,33,241,30,8*72
$GBGSV,2,1,07,01,47,139,42,07,72,203,47,08,59,267,42,10,71,260,46,B*0E
$GBGSV,2,2,07,13,48,255,42,04,35,121,41,12,09,301,31,B*37
$GNGGA,063335.00,3110.89235067,N,12124.26065567,E,4,26,0.6,2.5691,M,11.4439,M,01,0*47
$GNRMC,063335.00,A,3110.89235067,N,12124.26065567,E,0.003,150.3,190523,6.3,W,R,V*5D
$GPGSV,3,1,10,03,10,040,34,04,22,073,41,12,18,313,31,06,57,342,48,1*67
$GPGSV,3,2,10,09,32,108,38,17,60,102,48,19,74,039,49,20,25,228,35,1*66
$GPGSV,3,3,10,11,32,284,41,14,15,175,26,1*69
$GPGSV,2,1,07,04,22,073,40,12,18,313,26,06,57,342,46,09,32,108,36,4*69
$GPGSV,2,2,07,17,60,102,45,19,74,039,45,11,32,284,34,4*5C
$GPGSV,2,1,06,03,10,040,34,04,22,073,43,06,57,342,50,09,32,108,38,8*60
$GPGSV,2,2,06,11,32,284,43,14,15,175,31,8*63
$GBGSV,5,1,19,01,47,139,42,07,72,203,46,08,59,267,42,10,71,260,45,1*77
$GBGSV,5,2,19,13,48,255,44,19,59,082,50,20,18,041,38,22,43,179,46,1*71
$GBGSV,5,3,19,24,11,286,31,29,31,094,37,35,65,014,51,38,70,291,49,1*7F
$GBGSV,5,4,19,40,71,160,50,44,29,310,42,26,14,240,13,59,48,147,46,1*75
$GBGSV,5,5,19,04,35,121,39,12,09,301,28,60,33,241,34,1*40
$GBGSV,3,1,09,19,59,082,48,20,18,041,38,22,43,179,44,24,11,286,31,3*78
$GBGSV,3,2,09,29,31,094,30,35,65,014,49,38,70,291,47,40,71,160,48,3*7A
$GBGSV,3,3,09,44,29,310,43,3*43
$GBGSV,3,1,09,19,59,082,49,20,18,041,41,22,43,179,43,24,11,286,38,5*7F
$GBGSV,3,2,09,29,31,094,34,35,65,014,47,38,70,291,48,40,71,160,48,5*79
$GBGSV,3,3,09,44,29,310,40,5*46
$GBGSV,5,1,20,01,47,139,42,07,72,203,47,08,59,267,44,10,71,260,46,8*70
$GBGSV,5,2,20,13,48,255,43,19,59,082,50,20,18,041,39,22,43,179,44,8*76
$GBGSV,5,3,20,24,11,286,30,29,31,094,35,35,65,014,50,38,70,291,49,8*7E
$GBGSV,5,4,20,40,71,160,48,44,29,310,44,26,14,240,24,59,48,147,45,8*7E
$GBGSV,5,5,20,04,35,121,43,12,09,301,31,05,14,254,31,60,33,241,31,8*72
$GBGSV,2,1,07,01,47,139,42,07,72,203,47,08,59,267,42,10,71,260,46,B*0E
$GBGSV,2,2,07,13,48,255,42,04,35,121,41,12,09,301,31,B*37
$GNGGA,063336.00,3110.89235093,N,12124.26065604,E,4,28,0.6,2.5672,M,11.4439,M,01,0*4A
$GNRMC,063336.00,A,3110.89235093,N,12124.26065604,E,0.004,163.4,190523,6.3,W,R,V*53
$GPGSV,3,1,10,03,10,040,33,04,22,073,40,12,18,313,30,06,57,342,48,1*60
$GPGSV,3,2,10,09,32,108,37,17,60,102,47,19,74,039,48,20,25,228,33,1*61
$GPGSV,3,3,10,11,32,284,40,14,15,175,26,1*68
$GPGSV,2,1,07,04,22,073,40,12,18,313,24,06,57,342,46,09,32,108,36,4*6B
$GPGSV,2,2,07,17,60,102,45,19,74,039,45,11,32,284,34,4*5C
$GPGSV,2,1,06,03,10,040,36,04,22,073,44,06,57,342,50,09,32,108,38,8*65
$GPGSV,2,2,06,11,32,284,44,14,15,175,32,8*67
$GBGSV,5,1,19,01,47,139,42,07,72,203,45,08,59,267,42,10,71,260,45,1*74
$GBGSV,5,2,19,13,48,255,44,19,59,082,50,20,18,041,37,22,43,179,46,1*7E
$GBGSV,5,3,19,24,11,286,29,29,31,094,37,35,65,014,50,38,70,291,48,1*76
$GBGSV,5,4,19,40,71,160,49,44,29,310,42,26,14,240,13,59,48,147,45,1*7E
$GBGSV,5,5,19,04,35,121,39,12,09,301,27,60,33,241,33,1*48
$GBGSV,3,1,09,19,59,082,48,20,18,041,37,22,43,179,43,24,11,286,31,3*70
$GBGSV,3,2,09,29,31,094,30,35,65,014,49,38,70,291,47,40,71,160,47,3*75
$GBGSV,3,3,09,44,29,310,42,3*42
$GBGSV,3,1,09,19,59,082,49,20,18,041,41,22,43,179,44,24,11,286,38,5*78
$GBGSV,3,2,09,29,31,094,35,35,65,014,47,38,70,291,48,40,71,160,48,5*78
$GBGSV,3,3,09,44,29,310,41,5*47
$GBGSV,5,1,20,01,47,139,42,07,72,203,46,08,59,267,44,10,71,260,45,8*72
$GBGSV,5,2,20,13,48,255,43,19,59,082,50,20,18,041,39,22,43,179,44,8*76
$GBGSV,5,3,20,24,11,286,29,29,31,094,35,35,65,014,50,38,70,291,49,8*76
$GBGSV,5,4,20,40,71,160,48,44,29,310,43,26,14,240,24,59,48,147,45,8*79
$GBGSV,5,5,20,04,35,121,43,12,09,301,31,05,14,254,31,60,33,241,31,8*72
$GBGSV,2,1,07,01,47,139,42,07,72,203,47,08,59,267,42,10,71,260,46,B*0E
$GBGSV,2,2,07,13,48,255,42,04,35,121,41,12,09,301,31,B*37
$GNGGA,063337.00,3110.89234871,N,12124.26065700,E,4,28,0.6,2.5650,M,11.4439,M,01,0*4B
$GNRMC,063337.00,A,3110.89234871,N,12124.26065700,E,0.005,141.5,190523,6.3,W,R,V*52
$GPGSV,3,1,10,03,10,040,33,04,22,073,40,12,18,313,30,06,57,342,48,1*60
$GPGSV,3,2,10,09,32,108,37,17,60,102,47,19,74,039,48,20,25,228,32,1*60
$GPGSV,3,3,10,11,32,284,40,14,15,175,26,1*68
$GPGSV,2,1,07,04,22,073,40,12,18,313,25,06,57,342,46,09,32,108,36,4*6A
$GPGSV,2,2,07,17,60,102,45,19,74,039,45,11,32,284,34,4*5C
$GPGSV,2,1,06,03,10,040,36,04,22,073,44,06,57,342,50,09,32,108,38,8*65
$GPGSV,2,2,06,11,32,284,44,14,15,175,32,8*67
$GBGSV,5,1,19,01,47,139,42,07,72,203,45,08,59,267,42,10,71,260,45,1*74
$GBGSV,5,2,19,13,48,255,44,19,59,082,50,20,18,041,37,22,43,179,46,1*7E
$GBGSV,5,3,19,24,11,286,29,29,31,094,37,35,65,014,50,38,70,291,48,1*76
$GBGSV,5,4,19,40,71,160,49,44,29,310,42,26,14,240,13,59,48,147,45,1*7E
$GBGSV,5,5,19,04,35,121,39,12,09,301,27,60,33,241,34,1*4F
$GBGSV,3,1,09,19,59,082,48,20,18,041,37,22,43,179,43,24,11,286,31,3*70
$GBGSV,3,2,09,29,31,094,29,35,65,014,49,38,70,291,47,40,71,160,47,3*7D
$GBGSV,3,3,09,44,29,310,42,3*42
$GBGSV,3,1,09,19,59,082,49,20,18,041,42,22,43,179,44,24,11,286,38,5*7B
$GBGSV,3,2,09,29,31,094,35,35,65,014,47,38,70,291,48,40,71,160,48,5*78
$GBGSV,3,3,09,44,29,310,41,5*47
$GBGSV,5,1,20,01,47,139,41,07,72,203,45,08,59,267,43,10,71,260,44,8*74
$GBGSV,5,2,20,13,48,255,42,19,59,082,49,20,18,041,38,22,43,179,43,8*79
$GBGSV,5,3,20,24,11,286,26,29,31,094,33,35,65,014,48,38,70,291,47,8*78
$GBGSV,5,4,20,40,71,160,46,44,29,310,42,26,14,240,25,59,48,147,44,8*76
$GBGSV,5,5,20,04,35,121,41,12,09,301,29,05,14,254,31,60,33,241,31,8*79
$GBGSV,2,1,07,01,47,139,42,07,72,203,47,08,59,267,42,10,71,260,47,B*0F
$GBGSV,2,2,07,13,48,255,42,04,35,121,41,12,09,301,31,B*37
$GNGGA,063338.00,3110.89235141,N,12124.26065536,E,4,28,0.6,2.5551,M,11.4439,M,01,0*4A
$GNRMC,063338.00,A,3110.89235141,N,12124.26065536,E,0.005,131.0,190523,6.3,W,R,V*53
$GPGSV,3,1,10,03,10,040,33,04,22,072,40,12,18,313,30,06,57,342,48,1*61
$GPGSV,3,2,10,09,32,108,37,17,60,102,47,19,74,039,48,20,25,228,32,1*60
$GPGSV,3,3,10,11,32,284,40,14,15,175,27,1*69
$GPGSV,2,1,07,04,22,072,39,12,18,313,25,06,57,342,46,09,32,108,36,4*65
$GPGSV,2,2,07,17,60,102,44,19,74,039,45,11,32,284,34,4*5D
$GPGSV,2,1,06,03,10,040,36,04,22,072,44,06,57,342,50,09,32,108,38,8*64
$GPGSV,2,2,06,11,32,284,44,14,15,175,32,8*67
$GBGSV,5,1,19,01,47,139,42,07,72,203,45,08,59,267,42,10,71,260,45,1*74
$GBGSV,5,2,19,13,48,255,44,19,59,082,50,20,18,041,37,22,43,179,46,1*7E
$GBGSV,5,3,19,24,11,286,28,29,31,094,37,35,65,014,50,38,70,291,48,1*77
$GBGSV,5,4,19,40,71,160,49,44,29,310,43,26,14,240,13,59,48,147,45,1*7F
$GBGSV,5,5,19,04,35,121,39,12,09,301,26,60,33,241,34,1*4E
$GBGSV,3,1,09,19,59,082,48,20,18,041,37,22,43,179,44,24,11,286,31,3*77
$GBGSV,3,2,09,29,31,094,29,35,65,014,49,38,70,291,47,40,71,160,48,3*72
$GBGSV,3,3,09,44,29,310,42,3*42
$GBGSV,3,1,09,19,59,082,49,20,18,041,42,22,43,179,44,24,11,286,38,5*7B
$GBGSV,3,2,09,29,31,094,34,35,65,014,47,38,70,291,48,40,71,160,48,5*79
$GBGSV,3,3,09,44,29,310,41,5*47
$GBGSV,5,1,20,01,47,139,42,07,72,203,46,08,59,267,43,10,71,260,45,8*75
$GBGSV,5,2,20,13,48,255,42,19,59,082,49,20,18,041,39,22,43,179,43,8*78
$GBGSV,5,3,20,24,11,286,27,29,31,094,34,35,65,014,49,38,70,291,48,8*70
$GBGSV,5,4,20,40,71,160,47,44,29,310,43,26,14,240,25,59,48,147,44,8*76
$GBGSV,5,5,20,04,35,121,42,12,09,301,30,05,14,254,31,60,33,241,30,8*73
$GBGSV,2,1,07,01,47,139,41,07,72,203,46,08,59,267,42,10,71,260,46,B*0C
$GBGSV,2,2,07,13,48,255,41,04,35,121,41,12,09,301,30,B*35
$GNGGA,063339.00,3110.89234998,N,12124.26065442,E,4,28,0.6,2.5643,M,11.4439,M,01,0*44
$GNRMC,063339.00,A,3110.89234998,N,12124.26065442,E,0.007,117.5,190523,6.3,W,R,V*5E
$GPGSV,3,1,10,03,10,040,33,04,22,072,41,12,18,313,31,06,57,342,48,1*61
$GPGSV,3,2,10,09,32,108,37,17,60,102,48,19,74,039,49,20,25,228,32,1*6E
$GPGSV,3,3,10,11,32,284,41,14,15,175,27,1*68
$GPGSV,2,1,07,04,22,072,38,12,18,313,24,06,57,342,46,09,32,108,36,4*65
$GPGSV,2,2,07,17,60,102,45,19,74,039,45,11,32,284,34,4*5C
$GPGSV,2,1,06,03,10,040,36,04,22,072,44,06,57,342,50,09,32,108,39,8*65
$GPGSV,2,2,06,11,32,284,45,14,15,175,32,8*66
$GBGSV,5,1,19,01,47,139,43,07,72,203,46,08,59,267,43,10,71,260,45,1*77
$GBGSV,5,2,19,13,48,255,44,19,59,082,50,20,18,041,38,22,43,179,47,1*70
$GBGSV,5,3,19,24,11,286,29,29,31,094,37,35,65,014,51,38,70,291,49,1*76
$GBGSV,5,4,19,40,71,160,50,44,29,310,43,26,14,240,12,59,48,147,46,1*75
$GBGSV,5,5,19,04,35,121,40,12,09,301,27,60,33,241,35,1*40
$GBGSV,3,1,09,19,59,082,49,20,18,041,37,22,43,179,45,24,11,286,32,3*74
$GBGSV,3,2,09,29,31,094,29,35,65,014,49,38,70,291,47,40,71,160,48,3*72
$GBGSV,3,3,09,44,29,310,43,3*43
$GBGSV,3,1,09,19,59,082,49,20,18,041,42,22,43,179,44,24,11,286,39,5*7A
$GBGSV,3,2,09,29,31,094,35,35,65,014,48,38,70,291,48,40,71,160,49,5*76
$GBGSV,3,3,09,44,29,310,41,5*47
$GBGSV,5,1,20,01,47,139,42,07,72,203,46,08,59,267,44,10,71,260,45,8*72
$GBGSV,5,2,20,13,48,255,43,19,59,082,50,20,18,041,39,22,43,179,44,8*76
$GBGSV,5,3,20,24,11,286,26,29,31,094,34,35,65,014,49,38,70,291,48,8*71
$GBGSV,5,4,20,40,71,160,48,44,29,310,43,26,14,240,25,59,48,147,45,8*78
$GBGSV,5,5,20,04,35,121,42,12,09,301,30,05,14,254,30,60,33,241,31,8*73
$GBGSV,2,1,07,01,47,139,42,07,72,203,47,08,59,267,42,10,71,260,47,B*0F
$GBGSV,2,2,07,13,48,255,42,04,35,121,41,12,09,301,31,B*37
$GNGGA,063340.00,3110.89235146,N,12124.26065633,E,4,28,0.6,2.5652,M,11.4439,M,01,0*44
$GNRMC,063340.00,A,3110.89235146,N,12124.26065633,E,0.008,111.8,190523,6.3,W,R,V*5A
$GPGSV,3,1,10,03,10,040,34,04,22,072,41,12,18,313,30,06,57,342,48,1*67
$GPGSV,3,2,10,09,32,108,37,17,60,102,48,19,74,039,49,20,25,228,33,1*6F
$GPGSV,3,3,10,11,32,284,40,14,15,175,27,1*69
$GPGSV,2,1,07,04,22,072,38,12,18,313,24,06,57,342,47,09,32,108,36,4*64
$GPGSV,2,2,07,17,60,102,45,19,74,039,45,11,32,284,34,4*5C
$GPGSV,2,1,06,03,10,040,36,04,22,072,44,06,57,342,51,09,32,108,39,8*64
$GPGSV,2,2,06,11,32,284,45,14,15,175,32,8*66
$GBGSV,5,1,19,01,47,139,43,07,72,203,46,08,59,267,43,10,71,260,45,1*77
$GBGSV,5,2,19,13,48,255,45,19,59,082,51,20,18,041,38,22,43,179,47,1*70
$GBGSV,5,3,19,24,11,286,30,29,31,094,37,35,65,014,51,38,70,291,49,1*7E
$GBGSV,5,4,19,40,71,160,50,44,29,310,44,26,14,240,14,59,48,147,46,1*74
$GBGSV,5,5,19,04,35,121,40,12,09,301,27,60,33,241,35,1*40
$GBGSV,3,1,09,19,59,082,49,20,18,041,37,22,43,179,45,24,11,286,31,3*77
$GBGSV,3,2,09,29,31,094,29,35,65,014,49,38,70,291,48,40,71,160,48,3*7D
$GBGSV,3,3,09,44,29,310,43,3*43
$GBGSV,3,1,09,19,59,082,49,20,18,041,42,22,43,179,44,24,11,286,39,5*7A
$GBGSV,3,2,09,29,31,094,35,35,65,014,48,38,70,291,48,40,71,160,49,5*76
$GBGSV,3,3,09,44,29,310,41,5*47
$GBGSV,5,1,20,01,47,139,42,07,72,203,46,08,59,267,44,10,71,260,45,8*72
$GBGSV,5,2,20,13,48,255,43,19,59,082,50,20,18,041,40,22,43,179,44,8*78
$GBGSV,5,3,20,24,11,286,26,29,31,094,34,35,65,014,49,38,70,291,48,8*71
$GBGSV,5,4,20,40,71,160,48,44,29,310,44,26,14,240,25,59,48,147,45,8*7F
$GBGSV,5,5,20,04,35,121,42,12,09,301,30,05,14,254,30,60,33,241,31,8*73
$GBGSV,2,1,07,01,47,139,42,07,72,203,47,08,59,267,42,10,71,260,47,B*0F
$GBGSV,2,2,07,13,48,255,42,04,35,121,42,12,09,301,31,B*34
$GNGGA,063341.00,3110.89235223,N,12124.26065682,E,4,27,0.6,2.5547,M,11.4439,M,01,0*47
$GNRMC,063341.00,A,3110.89235223,N,12124.26065682,E,0.007,107.1,190523,6.3,W,R,V*50
$GPGSV,3,1,10,03,10,040,33,04,22,072,41,12,18,313,30,06,57,342,48,1*60
$GPGSV,3,2,10,09,32,108,37,17,60,102,48,19,74,039,49,20,25,228,33,1*6F
$GPGSV,3,3,10,11,32,284,40,14,15,175,28,1*66
$GPGSV,2,1,07,04,22,072,38,12,18,313,23,06,57,342,47,09,32,108,36,4*63
$GPGSV,2,2,07,17,60,102,45,19,74,039,45,11,32,284,34,4*5C
$GPGSV,2,1,06,03,10,040,36,04,22,072,44,06,57,342,51,09,32,108,39,8*64
$GPGSV,2,2,06,11,32,284,45,14,15,175,33,8*67
$GBGSV,5,1,19,01,47,139,43,07,72,203,46,08,59,267,43,10,71,260,45,1*77
$GBGSV,5,2,19,13,48,255,45,19,59,082,51,20,18,041,39,22,43,179,47,1*71
$GBGSV,5,3,19,24,11,286,30,29,31,094,37,35,65,014,51,38,70,291,49,1*7E
$GBGSV,5,4,19,40,71,160,50,44,29,310,44,26,14,240,15,59,48,147,46,1*75
$GBGSV,5,5,19,04,35,121,40,12,09,301,27,60,33,241,35,1*40
$GBGSV,3,1,09,19,59,082,49,20,18,041,38,22,43,179,45,24,11,286,31,3*78
$GBGSV,3,2,09,29,31,094,29,35,65,014,50,38,70,291,47,40,71,160,48,3*7A
$GBGSV,3,3,09,44,29,310,43,3*43
$GBGSV,3,1,09,19,59,082,49,20,18,041,42,22,43,179,44,24,11,286,39,5*7A
$GBGSV,3,2,09,29,31,094,35,35,65,014,48,38,70,291,48,40,71,160,49,5*76
$GBGSV,3,3,09,44,29,310,42,5*44
$GBGSV,5,1,20,01,47,139,43,07,72,203,46,08,59,267,44,10,71,260,46,8*70
$GBGSV,5,2,20,13,48,255,42,19,59,082,50,20,18,041,40,22,43,179,44,8*79
$GBGSV,5,3,20,24,11,286,26,29,31,094,34,35,65,014,49,38,70,291,48,8*71
$GBGSV,5,4,20,40,71,160,48,44,29,310,44,26,14,240,25,59,48,147,45,8*7F
$GBGSV,5,5,20,04,35,121,42,12,09,301,30,05,14,254,30,60,33,241,31,8*73
$GBGSV,2,1,07,01,47,139,42,07,72,203,47,08,59,267,42,10,71,260,47,B*0F
$GBGSV,2,2,07,13,48,255,42,04,35,121,42,12,09,301,30,B*35
$GNGGA,063342.00,3110.89235053,N,12124.26065560,E,4,27,0.6,2.5656,M,11.4439,M,01,0*4D
$GNRMC,063342.00,A,3110.89235053,N,12124.26065560,E,0.006,109.2,190523,6.3,W,R,V*55
$GPGSV,3,1,10,03,10,040,33,04,22,072,40,12,18,313,30,06,57,343,48,1*60
$GPGSV,3,2,10,09,32,108,37,17,60,102,48,19,74,039,49,20,25,228,34,1*68
$GPGSV,3,3,10,11,32,284,41,14,15,175,27,1*68
$GPGSV,2,1,07,04,22,072,38,12,18,313,23,06,57,343,47,09,32,108,37,4*63
$GPGSV,2,2,07,17,60,102,45,19,74,039,45,11,32,284,34,4*5C
$GPGSV,2,1,06,03,10,040,36,04,22,072,44,06,57,343,51,09,32,108,39,8*65
$GPGSV,2,2,06,11,32,284,45,14,15,175,32,8*66
$GBGSV,5,1,19,01,47,139,43,07,72,203,46,08,59,267,43,10,71,260,45,1*77
$GBGSV,5,2,19,13,48,255,45,19,59,082,51,20,18,041,39,22,43,179,47,1*71
$GBGSV,5,3,19,24,11,286,31,29,31,094,36,35,65,014,51,38,70,291,49,1*7E
$GBGSV,5,4,19,40,71,160,50,44,29,310,44,26,14,240,14,59,48,147,46,1*74
$GBGSV,5,5,19,04,35,121,40,12,09,301,26,60,33,241,35,1*41
$GBGSV,3,1,09,19,59,082,49,20,18,041,38,22,43,179,45,24,11,286,30,3*79
$GBGSV,3,2,09,29,31,094,29,35,65,014,49,38,70,291,47,40,71,160,48,3*72
$GBGSV,3,3,09,44,29,310,43,3*43
$GBGSV,3,1,09,19,59,082,49,20,18,041,42,22,43,179,44,24,11,286,39,5*7A
$GBGSV,3,2,09,29,31,094,34,35,65,014,48,38,70,291,48,40,71,160,49,5*77
$GBGSV,3,3,09,44,29,310,41,5*47
$GBGSV,5,1,20,01,47,139,42,07,72,203,46,08,59,267,44,10,71,260,45,8*72
$GBGSV,5,2,20,13,48,255,42,19,59,082,50,20,18,041,40,22,43,179,44,8*79
$GBGSV,5,3,20,24,11,286,24,29,31,094,33,35,65,014,49,38,70,291,48,8*74
$GBGSV,5,4,20,40,71,160,48,44,29,310,44,26,14,240,25,59,48,147,45,8*7F
$GBGSV,5,5,20,04,35,121,42,12,09,301,30,05,14,254,30,60,33,241,31,8*73
$GBGSV,2,1,07,01,47,139,42,07,72,203,47,08,59,267,43,10,71,260,47,B*0E
$GBGSV,2,2,07,13,48,255,42,04,35,121,42,12,09,301,30,B*35
$GNGGA,063343.00,3110.89235086,N,12124.26065512,E,4,26,0.6,2.5670,M,11.4439,M,01,0*44
$GNRMC,063343.00,A,3110.89235086,N,12124.26065512,E,0.004,122.8,190523,6.3,W,R,V*58
$GPGSV,3,1,10,03,10,040,33,04,22,072,40,12,18,313,30,06,57,343,48,1*60
$GPGSV,3,2,10,09,32,108,37,17,60,102,48,19,74,039,48,20,25,228,33,1*6E
$GPGSV,3,3,10,11,32,284,40,14,15,175,27,1*69
$GPGSV,2,1,06,04,22,072,38,06,57,343,46,09,32,108,37,17,60,102,45,4*6B
$GPGSV,2,2,06,19,74,039,45,11,32,284,33,4*68
$GPGSV,2,1,06,03,10,040,36,04,22,072,44,06,57,343,51,09,32,108,39,8*65
$GPGSV,2,2,06,11,32,284,45,14,15,175,33,8*67
$GBGSV,5,1,19,01,47,139,42,07,72,203,46,08,59,267,43,10,71,260,45,1*76
$GBGSV,5,2,19,13,48,255,45,19,59,082,51,20,18,041,39,22,43,179,47,1*71
$GBGSV,5,3,19,24,11,286,31,29,31,094,36,35,65,014,51,38,70,291,49,1*7E
$GBGSV,5,4,19,40,71,160,50,44,29,310,44,26,14,240,15,59,48,147,46,1*75
$GBGSV,5,5,19,04,35,121,40,12,09,301,25,60,33,241,35,1*42
$GBGSV,3,1,09,19,59,082,49,20,18,041,38,22,43,179,45,24,11,286,31,3*78
$GBGSV,3,2,09,29,31,094,28,35,65,014,49,38,70,291,47,40,71,160,48,3*73
$GBGSV,3,3,09,44,29,310,43,3*43
$GBGSV,3,1,09,19,59,082,49,20,18,041,41,22,43,179,44,24,11,286,39,5*79
$GBGSV,3,2,09,29,31,094,35,35,65,014,47,38,70,291,48,40,71,160,49,5*79
$GBGSV,3,3,09,44,29,310,41,5*47
$GBGSV,5,1,20,01,47,139,42,07,72,203,46,08,59,267,44,10,71,260,45,8*72
$GBGSV,5,2,20,13,48,255,42,19,59,082,50,20,18,041,40,22,43,179,44,8*79
$GBGSV,5,3,20,24,11,286,23,29,31,094,32,35,65,014,49,38,70,291,48,8*72
$GBGSV,5,4,20,40,71,160,48,44,29,310,43,26,14,240,25,59,48,147,45,8*78
$GBGSV,5,5,20,04,35,121,42,12,09,301,29,05,14,254,30,60,33,241,30,8*7A
$GBGSV,2,1,07,01,47,139,42,07,72,203,47,08,59,267,43,10,71,260,47,B*0E
$GBGSV,2,2,07,13,48,255,42,04,35,121,41,12,09,301,29,B*3E
$GNGGA,063344.00,3110.89235209,N,12124.26065590,E,4,25,0.6,2.5612,M,11.4439,M,01,0*4B
$GNRMC,063344.00,A,3110.89235209,N,12124.26065590,E,0.006,129.2,190523,6.3,W,R,V*53
$GPGSV,3,1,10,03,10,040,33,04,22,072,40,12,18,313,29,06,57,343,48,1*68
$GPGSV,3,2,10,09,32,108,37,17,60,102,47,19,74,039,48,20,25,228,34,1*66
$GPGSV,3,3,10,11,32,284,40,14,15,175,27,1*69
$GPGSV,2,1,07,04,22,072,39,12,18,313,24,06,57,343,46,09,32,108,37,4*64
$GPGSV,2,2,07,17,60,102,45,19,74,039,45,11,32,284,34,4*5C
$GPGSV,2,1,06,03,10,040,36,04,22,072,44,06,57,343,50,09,32,108,38,8*65
$GPGSV,2,2,06,11,32,284,45,14,15,175,32,8*66
$GBGSV,5,1,19,01,47,139,43,07,72,203,46,08,59,267,42,10,71,260,45,1*76
$GBGSV,5,2,19,13,48,255,45,19,59,082,50,20,18,041,39,22,43,179,47,1*70
$GBGSV,5,3,19,24,11,286,31,29,31,094,35,35,65,014,50,38,70,291,49,1*7C
$GBGSV,5,4,19,40,71,160,50,44,29,310,44,26,14,240,16,59,48,147,46,1*76
$GBGSV,5,5,19,04,35,121,39,12,09,301,25,60,33,241,34,1*4D
$GBGSV,3,1,09,19,59,082,48,20,18,041,38,22,43,179,44,24,11,286,30,3*79
$GBGSV,3,2,09,29,31,094,28,35,65,014,49,38,70,291,47,40,71,160,48,3*73
$GBGSV,3,3,09,44,29,310,43,3*43
$GBGSV,3,1,09,19,59,082,49,20,18,041,42,22,43,179,44,24,11,286,39,5*7A
$GBGSV,3,2,09,29,31,094,34,35,65,014,47,38,70,291,48,40,71,160,49,5*78
$GBGSV,3,3,09,44,29,310,41,5*47
$GBGSV,5,1,20,01,47,139,41,07,72,203,46,08,59,267,44,10,71,260,45,8*71
$GBGSV,5,2,20,13,48,255,42,19,59,082,50,20,18,041,40,22,43,179,44,8*79
$GBGSV,5,3,20,24,11,286,23,29,31,094,33,35,65,014,49,38,70,291,48,8*73
$GBGSV,5,4,20,40,71,160,48,44,29,310,44,26,14,240,25,59,48,147,45,8*7F
$GBGSV,5,5,20,04,35,121,42,12,09,301,28,05,14,254,30,60,33,241,31,8*7A
$GBGSV,2,1,07,01,47,139,42,07,72,203,47,08,59,267,42,10,71,260,47,B*0F
$GBGSV,2,2,07,13,48,255,42,04,35,121,41,12,09,301,29,B*3E
$GNGGA,063345.00,3110.89235204,N,12124.26065532,E,4,25,0.6,2.5669,M,11.4439,M,01,0*43
$GNRMC,063345.00,A,3110.89235204,N,12124.26065532,E,0.006,128.5,190523,6.3,W,R,V*51
$GPGSV,3,1,10,03,10,040,33,04,22,072,40,12,18,313,28,06,57,343,48,1*69
$GPGSV,3,2,10,09,32,108,37,17,60,102,47,19,74,039,48,20,25,228,33,1*61
$GPGSV,3,3,10,11,32,284,40,14,15,175,26,1*68
$GPGSV,2,1,06,04,22,072,39,06,57,343,46,09,32,108,37,17,60,102,45,4*6A
$GPGSV,2,2,06,19,74,039,45,11,32,284,32,4*69
$GPGSV,2,1,06,03,10,040,36,04,22,072,44,06,57,343,50,09,32,108,38,8*65
$GPGSV,2,2,06,11,32,284,45,14,15,175,32,8*66
$GBGSV,5,1,19,01,47,139,43,07,72,203,45,08,59,267,41,10,71,260,44,1*77
$GBGSV,5,2,19,13,48,255,44,19,59,082,49,20,18,041,38,22,43,179,46,1*79
$GBGSV,5,3,19,24,11,286,31,29,31,094,35,35,65,014,50,38,70,291,48,1*7D
$GBGSV,5,4,19,40,71,160,49,44,29,310,43,26,14,240,17,59,48,147,45,1*7B
$GBGSV,5,5,19,04,35,121,39,12,09,301,22,60,33,241,34,1*4A
$GBGSV,3,1,09,19,59,082,48,20,18,041,37,22,43,179,44,24,11,286,30,3*76
$GBGSV,3,2,09,29,31,094,28,35,65,014,49,38,70,291,47,40,71,160,47,3*7C
$GBGSV,3,3,09,44,29,310,42,3*42
$GBGSV,3,1,09,19,59,082,48,20,18,041,42,22,43,179,44,24,11,286,38,5*7A
$GBGSV,3,2,09,29,31,094,34,35,65,014,47,38,70,291,48,40,71,160,48,5*79
$GBGSV,3,3,09,44,29,310,41,5*47
$GBGSV,5,1,20,01,47,139,41,07,72,203,46,08,59,267,44,10,71,260,45,8*71
$GBGSV,5,2,20,13,48,255,42,19,59,082,50,20,18,041,40,22,43,179,44,8*79
$GBGSV,5,3,20,24,11,286,23,29,31,094,33,35,65,014,49,38,70,291,48,8*73
$GBGSV,5,4,20,40,71,160,47,44,29,310,44,26,14,240,25,59,48,147,45,8*70
$GBGSV,5,5,20,04,35,121,42,12,09,301,29,05,14,254,30,60,33,241,31,8*7B
$GBGSV,2,1,07,01,47,139,42,07,72,203,47,08,59,267,42,10,71,260,46,B*0E
$GBGSV,2,2,07,13,48,255,42,04,35,121,41,12,09,301,29,B*3E
$GNGGA,063346.00,3110.89234968,N,12124.26065452,E,4,25,0.6,2.5684,M,11.4439,M,01,0*44
$GNRMC,063346.00,A,3110.89234968,N,12124.26065452,E,0.005,127.2,190523,6.3,W,R,V*5E
$GPGSV,3,1,10,03,10,040,33,04,22,072,40,12,18,313,28,06,57,343,48,1*69
$GPGSV,3,2,10,09,32,108,36,17,60,102,47,19,74,039,48,20,25,228,33,1*60
$GPGSV,3,3,10,11,32,284,40,14,15,175,26,1*68
$GPGSV,2,1,07,04,22,072,38,12,18,313,25,06,57,343,46,09,32,108,36,4*65
$GPGSV,2,2,07,17,60,102,44,19,74,039,45,11,32,284,32,4*5B
$GPGSV,2,1,06,03,10,040,36,04,22,072,44,06,57,343,50,09,32,108,38,8*65
$GPGSV,2,2,06,11,32,284,45,14,15,175,32,8*66
$GBGSV,5,1,18,01,47,139,42,07,72,203,45,08,59,267,41,10,71,260,44,1*77
$GBGSV,5,2,18,13,48,255,44,19,59,082,49,20,18,041,38,22,43,179,46,1*78
$GBGSV,5,3,18,24,11,286,30,29,31,094,34,35,65,014,50,38,70,291,48,1*7C
$GBGSV,5,4,18,40,71,160,49,44,29,310,43,26,14,240,18,59,48,147,45,1*75
$GBGSV,5,5,18,04,35,121,39,60,33,241,33,1*74
$GBGSV,3,1,09,19,59,082,48,20,18,041,37,22,43,179,44,24,11,286,30,3*76
$GBGSV,3,2,09,29,31,094,29,35,65,014,48,38,70,291,47,40,71,160,47,3*7C
$GBGSV,3,3,09,44,29,310,42,3*42
$GBGSV,3,1,09,19,59,082,48,20,18,041,41,22,43,179,44,24,11,286,38,5*79
$GBGSV,3,2,09,29,31,094,34,35,65,014,47,38,70,291,48,40,71,160,48,5*79
$GBGSV,3,3,09,44,29,310,41,5*47
$GBGSV,5,1,20,01,47,139,42,07,72,203,46,08,59,267,44,10,71,260,45,8*72
$GBGSV,5,2,20,13,48,255,43,19,59,082,50,20,18,041,40,22,43,179,44,8*78
$GBGSV,5,3,20,24,11,286,20,29,31,094,33,35,65,014,50,38,70,291,48,8*78
$GBGSV,5,4,20,40,71,160,48,44,29,310,44,26,14,240,27,59,48,147,46,8*7E
$GBGSV,5,5,20,04,35,121,42,12,09,301,28,05,14,254,31,60,33,241,30,8*7A
$GBGSV,2,1,07,01,47,139,42,07,72,203,46,08,59,267,42,10,71,260,46,B*0F
$GBGSV,2,2,07,13,48,255,42,04,35,121,40,12,09,301,29,B*3F
$GNGGA,063347.00,3110.89235159,N,12124.26065583,E,4,25,0.6,2.5648,M,11.4439,M,01,0*43
$GNRMC,063347.00,A,3110.89235159,N,12124.26065583,E,0.007,137.9,190523,6.3,W,R,V*51
$GPGSV,3,1,10,03,10,040,34,04,22,072,41,12,18,313,28,06,57,343,48,1*6F
$GPGSV,3,2,10,09,32,108,36,17,60,102,47,19,74,039,48,20,25,228,34,1*67
$GPGSV,3,3,10,11,32,284,40,14,15,175,26,1*68
$GPGSV,2,1,07,04,22,072,39,12,18,313,26,06,57,343,46,09,32,108,36,4*67
$GPGSV,2,2,07,17,60,102,44,19,74,039,44,11,32,284,32,4*5A
$GPGSV,2,1,06,03,10,040,36,04,22,072,44,06,57,343,50,09,32,108,39,8*64
$GPGSV,2,2,06,11,32,284,45,14,15,175,33,8*67
$GBGSV,5,1,19,01,47,139,43,07,72,203,45,08,59,267,42,10,71,260,45,1*75
$GBGSV,5,2,19,13,48,255,44,19,59,082,49,20,18,041,39,22,43,179,46,1*78
$GBGSV,5,3,19,24,11,286,30,29,31,094,34,35,65,014,50,38,70,291,48,1*7D
$GBGSV,5,4,19,40,71,160,49,44,29,310,43,26,14,240,18,59,48,147,45,1*74
$GBGSV,5,5,19,04,35,121,40,12,09,301,20,60,33,241,33,1*41
$GBGSV,3,1,09,19,59,082,48,20,18,041,37,22,43,179,44,24,11,286,32,3*74
$GBGSV,3,2,09,29,31,094,29,35,65,014,49,38,70,291,47,40,71,160,47,3*7D
$GBGSV,3,3,09,44,29,310,43,3*43
$GBGSV,3,1,09,19,59,082,49,20,18,041,41,22,43,179,44,24,11,286,39,5*79
$GBGSV,3,2,09,29,31,094,35,35,65,014,47,38,70,291,48,40,71,160,49,5*79
$GBGSV,3,3,09,44,29,310,41,5*47
$GBGSV,5,1,20,01,47,139,42,07,72,203,46,08,59,267,44,10,71,260,46,8*71
$GBGSV,5,2,20,13,48,255,42,19,59,082,50,20,18,041,40,22,43,179,45,8*78
$GBGSV,5,3,20,24,11,286,19,29,31,094,33,35,65,014,50,38,70,291,48,8*72
$GBGSV,5,4,20,40,71,160,48,44,29,310,44,26,14,240,26,59,48,147,46,8*7F
$GBGSV,5,5,20,04,35,121,42,12,09,301,27,05,14,254,31,60,33,241,30,8*75
$GBGSV,2,1,07,01,47,139,42,07,72,203,47,08,59,267,43,10,71,260,47,B*0E
$GBGSV,2,2,07,13,48,255,42,04,35,121,40,12,09,301,29,B*3F
$GNGGA,063348.00,3110.89235107,N,12124.26065523,E,4,25,0.6,2.5654,M,11.4439,M,01,0*40
$GNRMC,063348.00,A,3110.89235107,N,12124.26065523,E,0.007,137.7,190523,6.3,W,R,V*51
$GPGSV,3,1,10,03,10,040,33,04,22,072,41,12,18,313,27,06,57,343,48,1*67
$GPGSV,3,2,10,09,32,108,36,17,60,102,47,19,74,039,48,20,25,228,32,1*61
$GPGSV,3,3,10,11,32,284,39,14,15,175,25,1*65
$GPGSV,2,1,07,04,22,072,39,12,18,313,25,06,57,343,46,09,32,108,36,4*64
$GPGSV,2,2,07,17,60,102,44,19,74,039,44,11,32,284,33,4*5B
$GPGSV,2,1,06,03,10,040,35,04,22,072,44,06,57,343,50,09,32,108,38,8*66
$GPGSV,2,2,06,11,32,284,45,14,15,175,32,8*66
$GBGSV,5,1,19,01,47,139,42,07,72,203,45,08,59,267,41,10,71,260,44,1*76
$GBGSV,5,2,19,13,48,255,44,19,59,082,49,20,18,041,38,22,43,179,45,1*7A
$GBGSV,5,3,19,24,11,286,30,29,31,094,34,35,65,014,50,38,70,291,48,1*7D
$GBGSV,5,4,19,40,71,160,49,44,29,310,43,26,14,240,18,59,48,147,45,1*74
$GBGSV,5,5,19,04,35,121,39,12,09,301,20,60,33,241,33,1*4F
$GBGSV,3,1,09,19,59,082,48,20,18,041,37,22,43,179,44,24,11,286,31,3*77
$GBGSV,3,2,09,29,31,094,28,35,65,014,48,38,70,291,47,40,71,160,47,3*7D
$GBGSV,3,3,09,44,29,310,42,3*42
$GBGSV,3,1,09,19,59,082,48,20,18,041,41,22,43,179,43,24,11,286,38,5*7E
$GBGSV,3,2,09,29,31,094,35,35,65,014,47,38,70,291,48,40,71,160,48,5*78
$GBGSV,3,3,09,44,29,310,41,5*47
$GBGSV,5,1,20,01,47,139,42,07,72,203,46,08,59,267,44,10,71,260,45,8*72
$GBGSV,5,2,20,13,48,255,43,19,59,082,50,20,18,041,40,22,43,179,45,8*79
$GBGSV,5,3,20,24,11,286,18,29,31,094,33,35,65,014,50,38,70,291,48,8*73
$GBGSV,5,4,20,40,71,160,48,44,29,310,44,26,14,240,25,59,48,147,46,8*7C
$GBGSV,5,5,20,04,35,121,42,12,09,301,27,05,14,254,31,60,33,241,30,8*75
$GBGSV,2,1,07,01,47,139,42,07,72,203,47,08,59,267,42,10,71,260,46,B*0E
$GBGSV,2,2,07,13,48,255,42,04,35,121,40,12,09,301,28,B*3E
$GNGGA,063349.00,3110.89234976,N,12124.26065423,E,4,25,0.6,2.5617,M,11.4439,M,01,0*48
$GNRMC,063349.00,A,3110.89234976,N,12124.26065423,E,0.007,162.1,190523,6.3,W,R,V*58
$GPGSV,3,1,10,03,10,040,34,04,22,072,42,12,18,313,27,06,57,343,49,1*62
$GPGSV,3,2,10,09,32,108,37,17,60,102,48,19,74,039,49,20,25,228,33,1*6F
$GPGSV,3,3,10,11,32,284,40,14,15,175,26,1*68
$GPGSV,2,1,07,04,22,072,39,12,18,313,25,06,57,343,46,09,32,108,36,4*64
$GPGSV,2,2,07,17,60,102,44,19,74,039,45,11,32,284,32,4*5B
$GPGSV,2,1,06,03,10,040,34,04,22,072,44,06,57,343,49,09,32,108,38,8*6F
$GPGSV,2,2,06,11,32,284,45,14,15,175,32,8*66
$GBGSV,5,1,19,01,47,139,43,07,72,203,46,08,59,267,42,10,71,260,45,1*76
$GBGSV,5,2,19,13,48,255,44,19,59,082,50,20,18,041,39,22,43,179,46,1*70
$GBGSV,5,3,19,24,11,286,30,29,31,094,36,35,65,015,51,38,70,291,49,1*7E
$GBGSV,5,4,19,40,71,160,50,44,29,310,43,26,14,240,18,59,48,147,46,1*7F
$GBGSV,5,5,19,04,35,121,40,12,09,301,20,60,33,241,33,1*41
$GBGSV,3,1,09,19,59,082,49,20,18,041,37,22,43,179,45,24,11,286,32,3*74
$GBGSV,3,2,09,29,31,094,30,35,65,015,49,38,70,291,47,40,71,160,48,3*7B
$GBGSV,3,3,09,44,29,310,43,3*43
$GBGSV,3,1,09,19,59,082,48,20,18,041,40,22,43,179,43,24,11,286,37,5*70
$GBGSV,3,2,09,29,31,094,34,35,65,015,47,38,70,291,47,40,71,160,48,5*77
$GBGSV,3,3,09,44,29,310,41,5*47
$GBGSV,5,1,20,01,47,139,42,07,72,203,46,08,59,267,44,10,71,260,45,8*72
$GBGSV,5,2,20,13,48,255,43,19,59,082,50,20,18,041,40,22,43,179,45,8*79
$GBGSV,5,3,20,24,11,286,17,29,31,094,34,35,65,015,50,38,70,291,48,8*7A
$GBGSV,5,4,20,40,71,160,48,44,29,310,44,26,14,240,25,59,48,147,46,8*7C
$GBGSV,5,5,20,04,35,121,42,12,09,301,28,05,14,254,30,60,33,241,31,8*7A
$GBGSV,2,1,07,01,47,139,42,07,72,203,47,08,59,267,42,10,71,260,46,B*0E
$GBGSV,2,2,07,13,48,255,42,04,35,121,40,12,09,301,27,B*31
$GNGGA,063350.00,3110.89235196,N,12124.26065579,E,4,25,0.6,2.5604,M,11.4439,M,01,0*4B
$GNRMC,063350.00,A,3110.89235196,N,12124.26065579,E,0.006,187.7,190523,6.3,W,R,V*55
$GPGSV,3,1,10,03,10,040,34,04,22,072,42,12,18,313,26,06,57,343,49,1*63
$GPGSV,3,2,10,09,32,108,37,17,60,102,48,19,74,039,49,20,25,228,33,1*6F
$GPGSV,3,3,10,11,32,284,40,14,15,175,25,1*6B
$GPGSV,2,1,07,04,22,072,39,12,18,313,25,06,57,343,46,09,32,108,36,4*64
$GPGSV,2,2,07,17,60,102,44,19,74,039,45,11,32,284,32,4*5B
$GPGSV,2,1,06,03,10,040,35,04,22,072,44,06,57,343,50,09,32,108,39,8*67
$GPGSV,2,2,06,11,32,284,45,14,15,175,32,8*66
$GBGSV,5,1,19,01,47,139,43,07,72,203,46,08,59,267,42,10,71,260,45,1*76
$GBGSV,5,2,19,13,48,255,45,19,59,082,50,20,18,041,40,22,43,179,46,1*7F
$GBGSV,5,3,19,24,11,285,31,29,31,094,35,35,65,015,51,38,70,291,49,1*7F
$GBGSV,5,4,19,40,71,160,50,44,29,310,44,26,14,240,17,59,48,147,47,1*76
$GBGSV,5,5,19,04,35,121,40,12,10,301,21,60,33,241,33,1*48
$GBGSV,3,1,09,19,59,082,49,20,18,041,37,22,43,179,45,24,11,285,32,3*77
$GBGSV,3,2,09,29,31,094,30,35,65,015,49,38,70,291,47,40,71,160,48,3*7B
$GBGSV,3,3,09,44,29,310,43,3*43
$GBGSV,3,1,09,19,59,082,48,20,18,041,40,22,43,179,43,24,11,285,37,5*73
$GBGSV,3,2,09,29,31,094,35,35,65,015,47,38,70,291,48,40,71,160,48,5*79
$GBGSV,3,3,09,44,29,310,41,5*47
$GBGSV,5,1,20,01,47,139,42,07,72,203,46,08,59,267,44,10,71,260,46,8*71
$GBGSV,5,2,20,13,48,255,43,19,59,082,50,20,18,041,40,22,43,179,45,8*79
$GBGSV,5,3,20,24,11,285,21,29,31,094,33,35,65,015,49,38,70,291,49,8*72
$GBGSV,5,4,20,40,71,160,48,44,29,310,44,26,14,240,25,59,48,147,46,8*7C
$GBGSV,5,5,20,04,35,121,42,12,10,301,27,05,14,254,31,60,33,241,31,8*7C
$GBGSV,2,1,07,01,47,139,42,07,72,203,47,08,59,267,42,10,71,260,47,B*0F
$GBGSV,2,2,07,13,48,255,42,04,35,121,40,12,10,301,27,B*39
$GNGGA,063351.00,3110.89235079,N,12124.26065389,E,4,25,0.6,2.5656,M,11.4439,M,01,0*44
$GNRMC,063351.00,A,3110.89235079,N,12124.26065389,E,0.006,190.3,190523,6.3,W,R,V*5F
$GPGSV,3,1,10,03,10,040,34,04,22,072,42,12,18,313,26,06,57,343,49,1*63
$GPGSV,3,2,10,09,32,108,37,17,60,102,48,19,74,039,49,20,25,228,34,1*68
$GPGSV,3,3,10,11,32,284,40,14,15,175,25,1*6B
$GPGSV,2,1,07,04,22,072,39,12,18,313,25,06,57,343,46,09,32,108,36,4*64
$GPGSV,2,2,07,17,60,102,44,19,74,039,44,11,32,284,31,4*59
$GPGSV,2,1,06,03,10,040,36,04,22,072,44,06,57,343,50,09,32,108,39,8*64
$GPGSV,2,2,06,11,32,284,46,14,15,175,32,8*65
$GBGSV,5,1,19,01,47,139,43,07,72,203,46,08,59,267,42,10,71,260,45,1*76
$GBGSV,5,2,19,13,48,255,45,19,59,082,50,20,18,041,39,22,43,179,46,1*71
$GBGSV,5,3,19,24,11,285,31,29,31,094,35,35,65,015,51,38,70,291,49,1*7F
$GBGSV,5,4,19,40,71,160,50,44,29,310,44,26,14,240,17,59,48,147,46,1*77
$GBGSV,5,5,19,04,35,121,39,12,10,301,21,60,33,241,33,1*46
$GBGSV,3,1,09,19,59,082,49,20,18,041,38,22,43,179,45,24,11,285,32,3*78
$GBGSV,3,2,09,29,31,094,29,35,65,015,49,38,70,291,47,40,71,160,48,3*73
$GBGSV,3,3,09,44,29,310,43,3*43
$GBGSV,3,1,09,19,59,082,48,20,18,041,40,22,43,179,44,24,11,285,37,5*74
$GBGSV,3,2,09,29,31,094,34,35,65,015,47,38,70,291,48,40,71,160,48,5*78
$GBGSV,3,3,09,44,29,310,41,5*47
$GBGSV,5,1,20,01,47,139,42,07,72,203,46,08,59,267,44,10,71,260,46,8*71
$GBGSV,5,2,20,13,48,255,43,19,59,082,50,20,18,041,39,22,43,179,45,8*77
$GBGSV,5,3,20,24,11,285,21,29,31,094,33,35,65,015,50,38,70,291,49,8*7A
$GBGSV,5,4,20,40,71,160,48,44,29,310,44,26,14,240,25,59,48,147,45,8*7F
$GBGSV,5,5,20,04,35,121,42,12,10,301,27,05,14,254,30,60,33,241,31,8*7D
$GBGSV,2,1,07,01,47,139,42,07,72,203,47,08,59,267,43,10,71,260,47,B*0E
$GBGSV,2,2,07,13,48,255,43,04,35,121,40,12,10,301,28,B*37
$GNGGA,063352.00,3110.89235075,N,12124.26065590,E,4,25,0.6,2.5705,M,11.4439,M,01,0*42
$GNRMC,063352.00,A,3110.89235075,N,12124.26065590,E,0.006,216.5,190523,6.3,W,R,V*55
$GPGSV,3,1,10,03,10,040,35,04,22,072,41,12,18,313,26,06,57,343,48,1*60
$GPGSV,3,2,10,09,32,108,36,17,60,102,48,19,74,039,49,20,25,228,33,1*6E
$GPGSV,3,3,10,11,32,284,40,14,15,175,21,1*6F
$GPGSV,2,1,06,04,22,072,39,06,57,343,46,09,32,108,36,17,60,102,44,4*6A
$GPGSV,2,2,06,19,74,039,44,11,32,284,31,4*6B
$GPGSV,2,1,06,03,10,040,35,04,22,072,44,06,57,343,50,09,32,108,38,8*66
$GPGSV,2,2,06,11,32,284,46,14,15,175,31,8*66
$GBGSV,5,1,19,01,47,139,43,07,72,203,46,08,59,267,41,10,71,260,45,1*75
$GBGSV,5,2,19,13,48,255,45,19,59,082,50,20,18,041,39,22,43,179,46,1*71
$GBGSV,5,3,19,24,11,285,30,29,31,094,35,35,65,015,51,38,70,291,48,1*7F
$GBGSV,5,4,19,40,71,160,50,44,29,310,43,26,14,240,18,59,48,147,46,1*7F
$GBGSV,5,5,19,04,35,121,39,12,10,301,21,60,33,241,33,1*46
$GBGSV,3,1,09,19,59,082,48,20,18,041,37,22,43,179,45,24,11,285,31,3*75
$GBGSV,3,2,09,29,31,094,28,35,65,015,49,38,70,291,47,40,71,160,48,3*72
$GBGSV,3,3,09,44,29,310,43,3*43
$GBGSV,3,1,09,19,59,082,48,20,18,041,40,22,43,179,44,24,11,285,37,5*74
$GBGSV,3,2,09,29,31,094,34,35,65,015,47,38,70,291,48,40,71,160,48,5*78
$GBGSV,3,3,09,44,29,310,41,5*47
$GBGSV,5,1,20,01,47,139,42,07,72,203,46,08,59,267,44,10,71,260,46,8*71
$GBGSV,5,2,20,13,48,255,43,19,59,082,50,20,18,041,39,22,43,179,45,8*77
$GBGSV,5,3,20,24,11,285,25,29,31,094,33,35,65,015,49,38,70,291,49,8*76
$GBGSV,5,4,20,40,71,160,48,44,29,310,44,26,14,240,25,59,48,147,45,8*7F
$GBGSV,5,5,20,04,35,121,42,12,10,301,27,05,14,254,30,60,33,241,31,8*7D
$GBGSV,2,1,07,01,47,139,42,07,72,203,47,08,59,267,43,10,71,260,46,B*0F
$GBGSV,2,2,07,13,48,255,43,04,35,121,41,12,10,301,27,B*39
$GNGGA,063353.00,3110.89235213,N,12124.26065570,E,4,25,0.6,2.5626,M,11.4439,M,01,0*4F
$GNRMC,063353.00,A,3110.89235213,N,12124.26065570,E,0.005,221.6,190523,6.3,W,R,V*5C
$GPGSV,3,1,10,03,10,040,35,04,22,072,41,12,18,313,26,06,57,343,48,1*60
$GPGSV,3,2,10,09,32,108,36,17,60,102,48,19,74,039,49,20,25,228,32,1*6F
$GPGSV,3,3,10,11,32,284,40,14,15,175,21,1*6F
$GPGSV,2,1,06,04,22,072,39,06,57,343,46,09,32,108,37,17,60,102,44,4*6B
$GPGSV,2,2,06,19,74,039,45,11,32,284,31,4*6A
$GPGSV,2,1,06,03,10,040,36,04,22,072,45,06,57,343,50,09,32,108,38,8*64
$GPGSV,2,2,06,11,32,284,46,14,15,175,32,8*65
$GBGSV,5,1,19,01,47,139,43,07,72,203,46,08,59,267,42,10,71,260,45,1*76
$GBGSV,5,2,19,13,48,255,45,19,59,082,50,20,18,041,39,22,43,179,46,1*71
$GBGSV,5,3,19,24,11,285,30,29,31,094,36,35,65,015,51,38,70,291,49,1*7D
$GBGSV,5,4,19,40,71,160,50,44,29,310,44,26,14,240,19,59,48,147,46,1*79
$GBGSV,5,5,19,04,35,121,39,12,10,301,21,60,33,241,33,1*46
$GBGSV,3,1,09,19,59,082,49,20,18,041,37,22,43,179,45,24,11,285,30,3*75
$GBGSV,3,2,09,29,31,094,28,35,65,015,49,38,70,291,47,40,71,160,48,3*72
$GBGSV,3,3,09,44,29,310,43,3*43
$GBGSV,3,1,09,19,59,082,48,20,18,041,39,22,43,179,44,24,11,285,37,5*7A
$GBGSV,3,2,09,29,31,094,34,35,65,015,47,38,70,291,48,40,71,160,48,5*78
$GBGSV,3,3,09,44,29,310,42,5*44
$GBGSV,5,1,20,01,47,139,41,07,72,203,45,08,59,267,44,10,71,260,45,8*72
$GBGSV,5,2,20,13,48,255,43,19,59,082,49,20,18,041,39,22,43,179,45,8*7F
$GBGSV,5,3,20,24,11,285,25,29,31,094,33,35,65,015,49,38,70,291,48,8*77
$GBGSV,5,4,20,40,71,160,48,44,29,310,44,26,14,240,25,59,48,147,45,8*7F
$GBGSV,5,5,20,04,35,121,42,12,10,301,27,05,14,254,30,60,33,241,30,8*7C
$GBGSV,2,1,07,01,47,139,42,07,72,203,47,08,59,267,43,10,71,260,47,B*0E
$GBGSV,2,2,07,13,48,255,43,04,35,121,41,12,10,301,26,B*38
$GNGGA,063354.00,3110.89235032,N,12124.26065454,E,4,25,0.6,2.5653,M,11.4439,M,01,0*4C
$GNRMC,063354.00,A,3110.89235032,N,12124.26065454,E,0.003,207.2,190523,6.3,W,R,V*5B
$GPGSV,3,1,10,03,10,040,35,04,22,072,41,12,18,313,26,06,57,343,49,1*61
$GPGSV,3,2,10,09,32,108,37,17,60,102,48,19,74,039,49,20,25,228,32,1*6E
$GPGSV,3,3,10,11,32,285,40,14,15,175,21,1*6E
$GPGSV,2,1,07,04,22,072,39,12,18,313,27,06,57,343,46,09,32,108,37,4*67
$GPGSV,2,2,07,17,60,102,44,19,74,039,45,11,32,285,31,4*59
$GPGSV,2,1,06,03,10,040,35,04,22,072,45,06,57,343,50,09,32,108,38,8*67
$GPGSV,2,2,06,11,32,285,47,14,15,175,32,8*65
$GBGSV,5,1,19,01,47,139,43,07,72,203,47,08,59,267,42,10,71,260,45,1*77
$GBGSV,5,2,19,13,48,255,45,19,59,082,50,20,18,041,39,22,43,179,47,1*70
$GBGSV,5,3,19,24,11,285,31,29,31,094,36,35,65,015,51,38,70,291,49,1*7C
$GBGSV,5,4,19,40,71,160,50,44,29,310,44,26,14,240,20,59,48,147,46,1*73
$GBGSV,5,5,19,04,35,121,39,12,10,301,21,60,33,241,33,1*46
$GBGSV,3,1,09,19,59,082,49,20,18,041,37,22,43,179,45,24,11,285,30,3*75
$GBGSV,3,2,09,29,31,094,28,35,65,015,49,38,70,291,47,40,71,160,48,3*72
$GBGSV,3,3,09,44,29,310,43,3*43
$GBGSV,3,1,09,19,59,082,48,20,18,041,39,22,43,179,44,24,11,285,37,5*7A
$GBGSV,3,2,09,29,31,094,34,35,65,015,47,38,70,291,48,40,71,160,48,5*78
$GBGSV,3,3,09,44,29,310,42,5*44
$GBGSV,5,1,19,01,47,139,41,07,72,203,45,08,59,267,44,10,71,260,45,8*78
$GBGSV,5,2,19,13,48,255,43,19,59,082,50,20,18,041,39,22,43,179,45,8*7D
$GBGSV,5,3,19,29,31,094,32,35,65,015,49,38,70,291,48,40,71,160,48,8*7B
$GBGSV,5,4,19,44,29,310,44,26,14,240,25,59,48,147,45,04,35,121,42,8*7A
$GBGSV,5,5,19,12,10,301,27,05,14,254,30,60,33,241,30,8*40
$GBGSV,2,1,07,01,47,139,42,07,72,203,47,08,59,267,43,10,71,260,47,B*0E
$GBGSV,2,2,07,13,48,255,43,04,35,121,41,12,10,301,26,B*38
$GNGGA,063355.00,3110.89235007,N,12124.26065492,E,4,25,0.6,2.5647,M,11.4439,M,01,0*44
$GNRMC,063355.00,A,3110.89235007,N,12124.26065492,E,0.004,216.1,190523,6.3,W,R,V*52
$GPGSV,3,1,10,03,10,040,35,04,22,072,41,12,18,313,26,06,57,343,48,1*60
$GPGSV,3,2,10,09,32,108,37,17,60,102,48,19,74,040,49,20,25,228,31,1*63
$GPGSV,3,3,10,11,32,285,39,14,15,175,20,1*61
$GPGSV,2,1,07,04,22,072,39,12,18,313,27,06,57,343,46,09,32,108,37,4*67
$GPGSV,2,2,07,17,60,102,44,19,74,040,45,11,32,285,30,4*56
$GPGSV,2,1,06,03,10,040,36,04,22,072,45,06,57,343,50,09,32,108,38,8*64
$GPGSV,2,2,06,11,32,285,46,14,15,175,32,8*64
$GBGSV,5,1,19,01,47,139,43,07,72,203,46,08,59,267,41,10,71,260,45,1*75
$GBGSV,5,2,19,13,48,255,45,19,59,082,50,20,18,041,39,22,43,179,46,1*71
$GBGSV,5,3,19,24,11,285,31,29,31,094,36,35,65,015,51,38,70,291,49,1*7C
$GBGSV,5,4,19,40,71,160,49,44,29,310,44,26,14,240,20,59,48,147,46,1*7B
$GBGSV,5,5,19,04,35,121,39,12,10,301,21,60,33,241,33,1*46
$GBGSV,3,1,09,19,59,082,48,20,18,041,37,22,43,179,45,24,11,285,29,3*7C
$GBGSV,3,2,09,29,31,094,27,35,65,015,49,38,70,291,47,40,71,160,48,3*7D
$GBGSV,3,3,09,44,29,310,43,3*43
$GBGSV,3,1,09,19,59,082,48,20,18,041,39,22,43,179,44,24,11,285,37,5*7A
$GBGSV,3,2,09,29,31,094,34,35,65,015,47,38,70,291,48,40,71,160,48,5*78
$GBGSV,3,3,09,44,29,310,41,5*47
$GBGSV,5,1,19,01,47,139,41,07,72,203,45,08,59,267,44,10,71,260,45,8*78
$GBGSV,5,2,19,13,48,255,43,19,59,082,50,20,18,041,39,22,43,179,45,8*7D
$GBGSV,5,3,19,29,31,094,32,35,65,015,49,38,70,291,48,40,71,160,47,8*74
$GBGSV,5,4,19,44,29,310,44,26,14,240,25,59,48,147,45,04,35,121,43,8*7B
$GBGSV,5,5,19,12,10,301,27,05,14,254,30,60,33,241,30,8*40
$GBGSV,2,1,07,01,47,139,42,07,72,203,47,08,59,267,43,10,71,260,47,B*0E
$GBGSV,2,2,07,13,48,255,43,04,35,121,41,12,10,301,25,B*3B
$GNGGA,063356.00,3110.89235000,N,12124.26065511,E,4,25,0.6,2.5683,M,11.4439,M,01,0*42
$GNRMC,063356.00,A,3110.89235000,N,12124.26065511,E,0.009,226.5,190523,6.3,W,R,V*56
$GPGSV,3,1,10,03,10,040,35,04,22,072,41,12,18,313,27,06,57,343,48,1*61
$GPGSV,3,2,10,09,32,108,37,17,60,102,48,19,74,040,49,20,25,228,31,1*63
$GPGSV,3,3,10,11,32,285,39,14,15,175,20,1*61
$GPGSV,2,1,07,04,22,072,39,12,18,313,27,06,57,343,46,09,32,108,37,4*67
$GPGSV,2,2,07,17,60,102,44,19,74,040,44,11,32,285,30,4*57
$GPGSV,2,1,06,03,10,040,36,04,22,072,45,06,57,343,50,09,32,108,38,8*64
$GPGSV,2,2,06,11,32,285,46,14,15,175,31,8*67
$GBGSV,5,1,19,01,47,139,42,07,72,203,46,08,59,267,41,10,71,260,45,1*74
$GBGSV,5,2,19,13,48,255,45,19,59,082,49,20,18,041,39,22,43,179,46,1*79
$GBGSV,5,3,19,24,11,285,32,29,31,094,35,35,65,015,51,38,70,291,49,1*7C
$GBGSV,5,4,19,40,71,160,49,44,29,310,43,26,14,240,21,59,48,147,45,1*7E
$GBGSV,5,5,19,04,35,121,39,12,10,301,20,60,33,241,34,1*40
$GBGSV,3,1,09,19,59,082,48,20,18,041,37,22,43,179,45,24,11,285,30,3*74
$GBGSV,3,2,09,29,31,094,27,35,65,015,49,38,70,291,47,40,71,160,48,3*7D
$GBGSV,3,3,09,44,29,310,43,3*43
$GBGSV,3,1,09,19,59,082,47,20,18,041,39,22,43,179,44,24,11,285,37,5*75
$GBGSV,3,2,09,29,31,094,34,35,65,015,47,38,70,291,48,40,71,160,48,5*78
$GBGSV,3,3,09,44,29,310,41,5*47
$GBGSV,5,1,19,01,47,139,41,07,72,203,45,08,59,267,44,10,71,260,45,8*78
$GBGSV,5,2,19,13,48,255,43,19,59,082,50,20,18,041,39,22,43,179,45,8*7D
$GBGSV,5,3,19,29,31,094,32,35,65,015,49,38,70,291,48,40,71,160,47,8*74
$GBGSV,5,4,19,44,29,310,44,26,14,240,25,59,48,147,45,04,35,121,43,8*7B
$GBGSV,5,5,19,12,10,301,27,05,14,254,30,60,33,241,30,8*40
$GBGSV,2,1,07,01,47,139,42,07,72,203,47,08,59,267,43,10,71,260,47,B*0E
$GBGSV,2,2,07,13,48,255,43,04,35,121,41,12,10,301,25,B*3B
$GNGGA,063357.00,3110.89235080,N,12124.26065458,E,4,25,0.6,2.5594,M,11.4439,M,01,0*42
$GNRMC,063357.00,A,3110.89235080,N,12124.26065458,E,0.008,227.0,190523,6.3,W,R,V*56
$GPGSV,3,1,10,03,10,040,34,04,22,072,41,12,18,313,28,06,57,343,48,1*6F
$GPGSV,3,2,10,09,32,108,37,17,60,102,48,19,74,040,49,20,25,228,30,1*62
$GPGSV,3,3,10,11,32,285,39,14,15,175,19,1*6B
$GPGSV,2,1,07,04,22,072,40,12,18,313,27,06,57,343,46,09,32,108,37,4*69
$GPGSV,2,2,07,17,60,102,44,19,74,040,45,11,32,285,30,4*56
$GPGSV,2,1,06,03,10,040,35,04,22,072,44,06,57,343,50,09,32,108,38,8*66
$GPGSV,2,2,06,11,32,285,47,14,15,175,31,8*66
$GBGSV,5,1,19,01,47,139,43,07,72,203,46,08,59,267,41,10,71,260,45,1*75
$GBGSV,5,2,19,13,48,255,45,19,59,081,50,20,18,041,39,22,43,179,47,1*73
$GBGSV,5,3,19,24,11,285,33,29,31,094,35,35,65,015,51,38,70,291,49,1*7D
$GBGSV,5,4,19,40,71,160,50,44,29,310,43,26,14,240,21,59,48,147,46,1*75
$GBGSV,5,5,19,04,35,121,39,12,10,301,20,60,33,241,34,1*40
$GBGSV,3,1,09,19,59,081,48,20,18,041,37,22,43,179,45,24,11,285,29,3*7F
$GBGSV,3,2,09,29,31,094,28,35,65,015,49,38,70,291,47,40,71,160,48,3*72
$GBGSV,3,3,09,44,29,310,43,3*43
$GBGSV,3,1,09,19,59,081,48,20,18,041,39,22,43,179,44,24,11,285,37,5*79
$GBGSV,3,2,09,29,31,094,34,35,65,015,47,38,70,291,48,40,71,160,48,5*78
$GBGSV,3,3,09,44,29,310,42,5*44
$GBGSV,5,1,19,01,47,139,41,07,72,203,45,08,59,267,44,10,71,260,46,8*7B
$GBGSV,5,2,19,13,48,255,43,19,59,081,50,20,18,041,40,22,43,179,45,8*70
$GBGSV,5,3,19,29,31,094,32,35,65,015,49,38,70,291,49,40,71,160,48,8*7A
$GBGSV,5,4,19,44,29,310,44,26,14,240,25,59,48,147,45,04,35,121,43,8*7B
$GBGSV,5,5,19,12,10,301,27,05,14,254,30,60,33,241,31,8*41
$GBGSV,2,1,07,01,47,139,42,07,72,203,47,08,59,267,43,10,71,260,47,B*0E
$GBGSV,2,2,07,13,48,255,42,04,35,121,41,12,10,301,24,B*3B
$GNGGA,063358.00,3110.89234912,N,12124.26065623,E,4,25,0.6,2.5705,M,11.4439,M,01,0*4A
$GNRMC,063358.00,A,3110.89234912,N,12124.26065623,E,0.007,217.9,190523,6.3,W,R,V*51
$GPGSV,3,1,10,03,10,040,34,04,22,072,42,12,18,313,28,06,57,343,48,1*6C
$GPGSV,3,2,10,09,32,108,37,17,60,102,48,19,74,040,49,20,25,228,30,1*62
$GPGSV,3,3,10,11,32,285,39,14,15,175,19,1*6B
$GPGSV,2,1,06,04,22,072,39,06,57,343,46,09,32,108,37,17,60,102,44,4*6B
$GPGSV,2,2,06,19,74,040,45,11,32,285,29,4*6C
$GPGSV,2,1,06,03,10,040,34,04,22,072,44,06,57,343,50,09,32,108,38,8*67
$GPGSV,2,2,06,11,32,285,46,14,15,175,31,8*67
$GBGSV,5,1,19,01,47,139,43,07,72,203,46,08,59,267,41,10,71,260,45,1*75
$GBGSV,5,2,19,13,48,255,45,19,59,081,50,20,18,041,40,22,43,179,47,1*7D
$GBGSV,5,3,19,24,11,285,33,29,31,094,35,35,65,015,51,38,70,291,49,1*7D
$GBGSV,5,4,19,40,71,160,50,44,29,310,44,26,14,240,22,59,48,147,46,1*71
$GBGSV,5,5,19,04,35,121,39,12,10,301,20,60,33,241,34,1*40
$GBGSV,3,1,09,19,59,081,48,20,18,041,37,22,43,179,45,24,11,285,29,3*7F
$GBGSV,3,2,09,29,31,094,27,35,65,015,49,38,70,291,47,40,71,160,48,3*7D
$GBGSV,3,3,09,44,29,310,43,3*43
$GBGSV,3,1,09,19,59,081,48,20,18,041,39,22,43,179,43,24,11,285,37,5*7E
$GBGSV,3,2,09,29,31,094,34,35,65,015,47,38,70,291,48,40,71,160,48,5*78
$GBGSV,3,3,09,44,29,310,42,5*44
$GBGSV,5,1,20,01,47,139,41,07,72,203,46,08,59,267,44,10,71,260,46,8*72
$GBGSV,5,2,20,13,48,255,43,19,59,081,50,20,18,041,40,22,43,179,45,8*7A
$GBGSV,5,3,20,24,11,285,25,29,31,094,32,35,65,015,49,38,70,291,49,8*77
$GBGSV,5,4,20,40,71,160,48,44,29,310,44,26,14,240,25,59,48,147,45,8*7F
